[
  {
    "userId": 1,
    "name": "Gostilna Pri Lojzetu",
    "category": "Fine Dining",
    "foodType": "Slovenian",
    "description": "Award-winning fine dining restaurant in Vipava Valley.",
    "latitude": 45.846778,
    "longitude": 13.968255,
    "location": { "type": "Point", "coordinates": [13.968255, 45.846778] },
    "address": "Zemono 7, 5271 Vipava",
    "city": "Vipava",
    "country": "Slovenia",
    "photos": ["https://example.com/photo1.jpg"]
  },
  {
    "userId": 1,
    "name": "Hiša Franko",
    "category": "Fine Dining",
    "foodType": "Slovenian",
    "description": "Michelin-starred restaurant by chef Ana Roš.",
    "latitude": 46.244742,
    "longitude": 13.582394,
    "location": { "type": "Point", "coordinates": [13.582394, 46.244742] },
    "address": "Staro selo 1, 5222 Kobarid",
    "city": "Kobarid",
    "country": "Slovenia",
    "photos": ["https://example.com/photo2.jpg"]
  },
  {
    "userId": 1,
    "name": "Strelec Restaurant",
    "category": "Fine Dining",
    "foodType": "European",
    "description": "Fine dining inside Ljubljana Castle with panoramic views.",
    "latitude": 46.050045,
    "longitude": 14.508304,
    "location": { "type": "Point", "coordinates": [14.508304, 46.050045] },
    "address": "Grajska planota 1, 1000 Ljubljana",
    "city": "Ljubljana",
    "country": "Slovenia",
    "photos": ["https://example.com/photo3.jpg"]
  },
   {
    "userId": 1,
    "name": "JB Restaurant",
    "category": "Fine Dining",
    "foodType": "Modern European",
    "description": "An elegant dining experience by chef Janez Bratovž in central Ljubljana.",
    "latitude": 46.052993,
    "longitude": 14.505751,
    "location": { "type": "Point", "coordinates": [14.505751, 46.052993] },
    "address": "Miklošičeva cesta 17, 1000 Ljubljana",
    "city": "Ljubljana",
    "country": "Slovenia",
    "photos": ["https://example.com/photo4.jpg"]
  },
  {
    "userId": 1,
    "name": "Pikol Lake Village",
    "category": "Boutique Dining",
    "foodType": "Fusion",
    "description": "A unique dining experience surrounded by nature and water in Nova Gorica.",
    "latitude": 45.950343,
    "longitude": 13.664122,
    "location": { "type": "Point", "coordinates": [13.664122, 45.950343] },
    "address": "Gregorčičeva ulica 27, 5000 Nova Gorica",
    "city": "Nova Gorica",
    "country": "Slovenia",
    "photos": ["https://example.com/photo5.jpg"]
  },
  {
    "userId": 1,
    "name": "Dvor Jezeršek",
    "category": "Traditional",
    "foodType": "Slovenian",
    "description": "Charming restaurant with traditional Slovenian dishes near the Alps.",
    "latitude": 46.235382,
    "longitude": 14.451981,
    "location": { "type": "Point", "coordinates": [14.451981, 46.235382] },
    "address": "Zgornji Brnik 63, 4207 Cerklje na Gorenjskem",
    "city": "Cerklje na Gorenjskem",
    "country": "Slovenia",
    "photos": ["https://example.com/photo6.jpg"]
  },
  {
    "userId": 1,
    "name": "Ošterija Debeluh",
    "category": "Gourmet",
    "foodType": "Creative Slovenian",
    "description": "Modern take on Slovenian cuisine by award-winning chef Jure Tomič.",
    "latitude": 45.904627,
    "longitude": 15.435191,
    "location": { "type": "Point", "coordinates": [15.435191, 45.904627] },
    "address": "Trg izgnancev 7, 8250 Brežice",
    "city": "Brežice",
    "country": "Slovenia",
    "photos": ["https://example.com/photo7.jpg"]
  },
  {
    "userId": 1,
    "name": "Gostilna Repovž",
    "category": "Eco Dining",
    "foodType": "Organic Slovenian",
    "description": "Eco-friendly family-run restaurant using local and organic ingredients.",
    "latitude": 46.090446,
    "longitude": 15.122496,
    "location": { "type": "Point", "coordinates": [15.122496, 46.090446] },
    "address": "Šentjanž 14, 8297 Šentjanž",
    "city": "Šentjanž",
    "country": "Slovenia",
    "photos": ["https://example.com/photo8.jpg"]
  },
  {
    "userId": 1,
    "name": "Restavracija Sedem",
    "category": "Contemporary",
    "foodType": "International",
    "description": "Training restaurant run by hospitality students offering creative menus.",
    "latitude": 46.558164,
    "longitude": 15.645722,
    "location": { "type": "Point", "coordinates": [15.645722, 46.558164] },
    "address": "Tyrševa ulica 25, 2000 Maribor",
    "city": "Maribor",
    "country": "Slovenia",
    "photos": ["https://example.com/photo9.jpg"]
  },
  {
    "userId": 1,
    "name": "Krištof Restaurant",
    "category": "Fine Dining",
    "foodType": "Mediterranean-Slovenian",
    "description": "Modern Mediterranean cuisine with Slovenian flair and local wines.",
    "latitude": 46.298262,
    "longitude": 14.485361,
    "location": { "type": "Point", "coordinates": [14.485361, 46.298262] },
    "address": "Predoslje 22, 4000 Kranj",
    "city": "Kranj",
    "country": "Slovenia",
    "photos": ["https://example.com/photo10.jpg"]
  }
]
